{
    "store_id": "ChIJK14mBjyffDURykEQJzs687I",
    "timestamp": "20260114_105603",
    "standard_info": {
        "id": "ChIJK14mBjyffDURykEQJzs687I",
        "name": "팬팬",
        "address": "서울특별시 영등포구 당산동1가 53-4 1층",
        "phone": "02-2633-0041",
        "category": "일반 매장",
        "lat": 0.0,
        "lng": 0.0,
        "hours": "",
        "description": "",
        "photos": [],
        "source_url": "https://www.instagram.com/panfan1997"
    },
    "raw_google": {
        "name": "팬팬",
        "address": "대한민국 서울특별시 영등포구 영등포로 143 1층",
        "phone": "02-2135-2017",
        "category": "Establishment",
        "lat": 0.0,
        "lng": 0.0
    },
    "raw_naver": {
        "name": "팬팬",
        "address": "서울특별시 영등포구 당산동1가 53-4 1층",
        "phone": "02-2633-0041",
        "category": "일반 매장",
        "link": "https://www.instagram.com/panfan1997",
        "mapx": "1268976715",
        "mapy": "375214170"
    },
    "raw_kakao": {
        "name": "팬팬(PANFAN)",
        "address": "서울 영등포구 영등포로 143",
        "phone": "02-2135-2017"
    },
    "llm_responses": {
        "ChatGPT": [
            {
                "question": "서울특별시 영등포구에서 일반 매장 추천해줄 만한 곳이 있나요?",
                "answer": "영등포구에서 일반 매장으로는 여의도나 영등포역 주변의 쇼핑몰이나 백화점을 추천드릴 수 있습니다. 현대백화점 영등포점, 타임스퀘어, 영등포 지하상가 등이 있어 다양한 쇼핑을 즐기실 수 있습니다.",
                "evaluation": "Bad"
            },
            {
                "question": "서울특별시 영등포구에 있는 팬팬에 대해 알려주세요.",
                "answer": "죄송합니다. \"팬팬\"에 대한 정보가 부족합니다. 구체적인 내용을 알려주시면 도와드리겠습니다.",
                "evaluation": "Good"
            },
            {
                "question": "팬팬이 서울특별시 영등포구에서 인기 있는 이유가 뭔가요?",
                "answer": "영등포구는 대형 쇼핑몰과 맛집이 밀집해 있어 쇼핑과 음식을 동시에 즐길 수 있는 곳으로 인기가 많습니다. 또한 한강과 랜드마크인 여의도 한강공원도 인근에 있어 풍부한 관광 명소가 많습니다.",
                "evaluation": "Bad"
            }
        ]
    },
    "missing_fields": [],
    "mismatch_fields": [
        "phone_naver_kakao"
    ],
    "search_candidates": {
        "Kakao": [
            {
                "name": "팬팬(PANFAN)",
                "address": "서울 영등포구 영등포로 143",
                "phone": "02-2135-2017"
            }
        ]
    },
    "errors": {}
}